{"type": "FeatureCollection", "features": [{"id": "0", "type": "Feature", "properties": {"fid": 2, "osm_id": "155479759", "code": 5601, "fclass": "railway_station", "name": "Wroc\u0142aw G\u0142\u00f3wny"}, "geometry": {"type": "Point", "coordinates": [17.0379512, 51.097916]}}, {"id": "1", "type": "Feature", "properties": {"fid": 3, "osm_id": "241763683", "code": 5601, "fclass": "railway_station", "name": "Wroc\u0142aw So\u0142tysowice"}, "geometry": {"type": "Point", "coordinates": [17.0835373, 51.1425485]}}, {"id": "2", "type": "Feature", "properties": {"fid": 4, "osm_id": "242360270", "code": 5601, "fclass": "railway_station", "name": "O\u0142awa"}, "geometry": {"type": "Point", "coordinates": [17.2974306, 50.9307485]}}, {"id": "3", "type": "Feature", "properties": {"fid": 5, "osm_id": "248216807", "code": 5601, "fclass": "railway_station", "name": "Zi\u0119bice"}, "geometry": {"type": "Point", "coordinates": [17.0338875, 50.6086503]}}, {"id": "4", "type": "Feature", "properties": {"fid": 6, "osm_id": "248216848", "code": 5602, "fclass": "railway_halt", "name": "Suszka"}, "geometry": {"type": "Point", "coordinates": [16.8243733, 50.530844]}}, {"id": "5", "type": "Feature", "properties": {"fid": 7, "osm_id": "248216912", "code": 5602, "fclass": "railway_halt", "name": "K\u0142odzko Ksi\u0105\u017cek"}, "geometry": {"type": "Point", "coordinates": [16.6409188, 50.4157003]}}, {"id": "6", "type": "Feature", "properties": {"fid": 8, "osm_id": "248216924", "code": 5602, "fclass": "railway_halt", "name": "Stary Wielis\u0142aw"}, "geometry": {"type": "Point", "coordinates": [16.5762696, 50.4051826]}}, {"id": "7", "type": "Feature", "properties": {"fid": 17, "osm_id": "266565814", "code": 5601, "fclass": "railway_station", "name": "Malczyce"}, "geometry": {"type": "Point", "coordinates": [16.4859684, 51.2156915]}}, {"id": "8", "type": "Feature", "properties": {"fid": 18, "osm_id": "266567525", "code": 5601, "fclass": "railway_station", "name": "Wroc\u0142aw Le\u015bnica"}, "geometry": {"type": "Point", "coordinates": [16.8672785, 51.1419618]}}, {"id": "9", "type": "Feature", "properties": {"fid": 19, "osm_id": "266913785", "code": 5601, "fclass": "railway_station", "name": "Milicz"}, "geometry": {"type": "Point", "coordinates": [17.2950351, 51.5273812]}}, {"id": "10", "type": "Feature", "properties": {"fid": 26, "osm_id": "295137286", "code": 5601, "fclass": "railway_station", "name": "Bielany Wroc\u0142awskie"}, "geometry": {"type": "Point", "coordinates": [16.9757672, 51.0361294]}}, {"id": "11", "type": "Feature", "properties": {"fid": 27, "osm_id": "295374333", "code": 5601, "fclass": "railway_station", "name": "Ole\u015bnica"}, "geometry": {"type": "Point", "coordinates": [17.385924, 51.200657]}}, {"id": "12", "type": "Feature", "properties": {"fid": 28, "osm_id": "295374382", "code": 5602, "fclass": "railway_halt", "name": "Solniki Wielkie"}, "geometry": {"type": "Point", "coordinates": [17.4938517, 51.1540096]}}, {"id": "13", "type": "Feature", "properties": {"fid": 29, "osm_id": "295374533", "code": 5601, "fclass": "railway_station", "name": "Bierut\u00f3w"}, "geometry": {"type": "Point", "coordinates": [17.5461214, 51.1284443]}}, {"id": "14", "type": "Feature", "properties": {"fid": 30, "osm_id": "295396299", "code": 5601, "fclass": "railway_station", "name": "Borowa Ole\u015bnicka"}, "geometry": {"type": "Point", "coordinates": [17.2760947, 51.1841096]}}, {"id": "15", "type": "Feature", "properties": {"fid": 31, "osm_id": "295966496", "code": 5601, "fclass": "railway_station", "name": "Wa\u0142brzych Szczawienko"}, "geometry": {"type": "Point", "coordinates": [16.3027078, 50.8163919]}}, {"id": "16", "type": "Feature", "properties": {"fid": 32, "osm_id": "295978866", "code": 5601, "fclass": "railway_station", "name": "K\u0105ty Wroc\u0142awskie"}, "geometry": {"type": "Point", "coordinates": [16.7499748, 51.0379927]}}, {"id": "17", "type": "Feature", "properties": {"fid": 33, "osm_id": "295979492", "code": 5602, "fclass": "railway_halt", "name": "Sadowice Wroc\u0142awskie"}, "geometry": {"type": "Point", "coordinates": [16.8246851, 51.0560102]}}, {"id": "18", "type": "Feature", "properties": {"fid": 34, "osm_id": "295997691", "code": 5602, "fclass": "railway_halt", "name": "Smolec"}, "geometry": {"type": "Point", "coordinates": [16.8819566, 51.0715937]}}, {"id": "19", "type": "Feature", "properties": {"fid": 35, "osm_id": "302207573", "code": 5602, "fclass": "railway_halt", "name": "Szewce"}, "geometry": {"type": "Point", "coordinates": [16.9540798, 51.2161432]}}, {"id": "20", "type": "Feature", "properties": {"fid": 36, "osm_id": "302207879", "code": 5602, "fclass": "railway_halt", "name": "Wroc\u0142aw \u015awiniary"}, "geometry": {"type": "Point", "coordinates": [16.9697587, 51.1980793]}}, {"id": "21", "type": "Feature", "properties": {"fid": 37, "osm_id": "302208350", "code": 5602, "fclass": "railway_halt", "name": "Wroc\u0142aw Popowice"}, "geometry": {"type": "Point", "coordinates": [17.001416, 51.1273621]}}, {"id": "22", "type": "Feature", "properties": {"fid": 38, "osm_id": "302219048", "code": 5602, "fclass": "railway_halt", "name": "Osola"}, "geometry": {"type": "Point", "coordinates": [16.8656345, 51.3383259]}}, {"id": "23", "type": "Feature", "properties": {"fid": 39, "osm_id": "302221812", "code": 5601, "fclass": "railway_station", "name": "Oborniki \u015al\u0105skie"}, "geometry": {"type": "Point", "coordinates": [16.907326, 51.2996135]}}, {"id": "24", "type": "Feature", "properties": {"fid": 40, "osm_id": "302223765", "code": 5601, "fclass": "railway_station", "name": "Wroc\u0142aw Osobowice"}, "geometry": {"type": "Point", "coordinates": [16.9966038, 51.1670923]}}, {"id": "25", "type": "Feature", "properties": {"fid": 41, "osm_id": "302223767", "code": 5602, "fclass": "railway_halt", "name": "Wroc\u0142aw Miko\u0142aj\u00f3w"}, "geometry": {"type": "Point", "coordinates": [16.998395, 51.1162965]}}, {"id": "26", "type": "Feature", "properties": {"fid": 42, "osm_id": "358344842", "code": 5602, "fclass": "railway_halt", "name": "Wroc\u0142aw Paw\u0142owice"}, "geometry": {"type": "Point", "coordinates": [17.1083776, 51.1687803]}}, {"id": "27", "type": "Feature", "properties": {"fid": 43, "osm_id": "404736841", "code": 5602, "fclass": "railway_halt", "name": "Bystrzyca K\u0142odzka"}, "geometry": {"type": "Point", "coordinates": [16.654958, 50.2968963]}}, {"id": "28", "type": "Feature", "properties": {"fid": 44, "osm_id": "404771752", "code": 5601, "fclass": "railway_station", "name": "Gorzan\u00f3w"}, "geometry": {"type": "Point", "coordinates": [16.6408355, 50.3544202]}}, {"id": "29", "type": "Feature", "properties": {"fid": 45, "osm_id": "410273634", "code": 5602, "fclass": "railway_halt", "name": "Gorzuch\u00f3w K\u0142odzki"}, "geometry": {"type": "Point", "coordinates": [16.5717897, 50.489736]}}, {"id": "30", "type": "Feature", "properties": {"fid": 46, "osm_id": "410697138", "code": 5601, "fclass": "railway_station", "name": "W\u0119gliniec"}, "geometry": {"type": "Point", "coordinates": [15.2229659, 51.2901013]}}, {"id": "31", "type": "Feature", "properties": {"fid": 47, "osm_id": "410701277", "code": 5601, "fclass": "railway_station", "name": "Wroc\u0142aw \u017berniki"}, "geometry": {"type": "Point", "coordinates": [16.9164074, 51.1261453]}}, {"id": "32", "type": "Feature", "properties": {"fid": 48, "osm_id": "410701278", "code": 5602, "fclass": "railway_halt", "name": "Wroc\u0142aw Nowy Dw\u00f3r"}, "geometry": {"type": "Point", "coordinates": [16.9551819, 51.1196824]}}, {"id": "33", "type": "Feature", "properties": {"fid": 49, "osm_id": "410701279", "code": 5602, "fclass": "railway_halt", "name": "Wroc\u0142aw Muchob\u00f3r"}, "geometry": {"type": "Point", "coordinates": [16.9747674, 51.1111407]}}, {"id": "34", "type": "Feature", "properties": {"fid": 50, "osm_id": "412258495", "code": 5601, "fclass": "railway_station", "name": "Kamienna G\u00f3ra"}, "geometry": {"type": "Point", "coordinates": [16.0228244, 50.7852469]}}, {"id": "35", "type": "Feature", "properties": {"fid": 51, "osm_id": "413329406", "code": 5601, "fclass": "railway_station", "name": "Ma\u0142owice Wo\u0142owskie"}, "geometry": {"type": "Point", "coordinates": [16.4714106, 51.4044231]}}, {"id": "36", "type": "Feature", "properties": {"fid": 52, "osm_id": "413338538", "code": 5601, "fclass": "railway_station", "name": "\u015awi\u0119ta Katarzyna"}, "geometry": {"type": "Point", "coordinates": [17.1231438, 51.0295633]}}, {"id": "37", "type": "Feature", "properties": {"fid": 53, "osm_id": "413351232", "code": 5602, "fclass": "railway_halt", "name": "W\u0119gry"}, "geometry": {"type": "Point", "coordinates": [17.032825, 50.9257881]}}, {"id": "38", "type": "Feature", "properties": {"fid": 54, "osm_id": "413398658", "code": 5601, "fclass": "railway_station", "name": "Strzelin"}, "geometry": {"type": "Point", "coordinates": [17.0602369, 50.7842124]}}, {"id": "39", "type": "Feature", "properties": {"fid": 55, "osm_id": "413567246", "code": 5601, "fclass": "railway_station", "name": "\u017b\u00f3rawina"}, "geometry": {"type": "Point", "coordinates": [17.0495813, 50.9834219]}}, {"id": "40", "type": "Feature", "properties": {"fid": 56, "osm_id": "418127386", "code": 5601, "fclass": "railway_station", "name": "Wa\u0142brzych G\u0142\u00f3wny"}, "geometry": {"type": "Point", "coordinates": [16.2806898, 50.7433935]}}, {"id": "41", "type": "Feature", "properties": {"fid": 57, "osm_id": "420072866", "code": 5601, "fclass": "railway_station", "name": "Bogusz\u00f3w-Gorce"}, "geometry": {"type": "Point", "coordinates": [16.2017185, 50.7503794]}}, {"id": "42", "type": "Feature", "properties": {"fid": 58, "osm_id": "420072902", "code": 5601, "fclass": "railway_station", "name": "Bogusz\u00f3w-Gorce Zach\u00f3d"}, "geometry": {"type": "Point", "coordinates": [16.1672349, 50.7623764]}}, {"id": "43", "type": "Feature", "properties": {"fid": 59, "osm_id": "430419516", "code": 5602, "fclass": "railway_halt", "name": "Przedmo\u015bcie \u015awi\u0119te"}, "geometry": {"type": "Point", "coordinates": [16.6646451, 51.1905017]}}, {"id": "44", "type": "Feature", "properties": {"fid": 60, "osm_id": "438208370", "code": 5601, "fclass": "railway_station", "name": "Kobierzyce"}, "geometry": {"type": "Point", "coordinates": [16.9265914, 50.9742632]}}, {"id": "45", "type": "Feature", "properties": {"fid": 61, "osm_id": "459395485", "code": 5601, "fclass": "railway_station", "name": "Luba\u0144 \u015al\u0105ski"}, "geometry": {"type": "Point", "coordinates": [15.2935413, 51.1113578]}}, {"id": "46", "type": "Feature", "properties": {"fid": 62, "osm_id": "484724571", "code": 5602, "fclass": "railway_halt", "name": "Giera\u0142t\u00f3w"}, "geometry": {"type": "Point", "coordinates": [15.2998556, 51.1920636]}}, {"id": "47", "type": "Feature", "properties": {"fid": 63, "osm_id": "484742029", "code": 5601, "fclass": "railway_station", "name": "Zebrzydowa"}, "geometry": {"type": "Point", "coordinates": [15.3891682, 51.2546842]}}, {"id": "48", "type": "Feature", "properties": {"fid": 64, "osm_id": "484882007", "code": 5602, "fclass": "railway_halt", "name": "Tomasz\u00f3w Boles\u0142awiecki"}, "geometry": {"type": "Point", "coordinates": [15.6800731, 51.2860811]}}, {"id": "49", "type": "Feature", "properties": {"fid": 65, "osm_id": "487092286", "code": 5601, "fclass": "railway_station", "name": "Bia\u0142y Ko\u015bci\u00f3\u0142"}, "geometry": {"type": "Point", "coordinates": [17.0299488, 50.7284605]}}, {"id": "50", "type": "Feature", "properties": {"fid": 66, "osm_id": "487097036", "code": 5601, "fclass": "railway_station", "name": "Henryk\u00f3w"}, "geometry": {"type": "Point", "coordinates": [17.0301377, 50.6630769]}}, {"id": "51", "type": "Feature", "properties": {"fid": 67, "osm_id": "496869965", "code": 5601, "fclass": "railway_station", "name": "Starcz\u00f3w"}, "geometry": {"type": "Point", "coordinates": [16.9467628, 50.5634447]}}, {"id": "52", "type": "Feature", "properties": {"fid": 68, "osm_id": "510885402", "code": 5601, "fclass": "railway_station", "name": "Smardz\u00f3w Wroc\u0142awski"}, "geometry": {"type": "Point", "coordinates": [17.0661283, 51.0306885]}}, {"id": "53", "type": "Feature", "properties": {"fid": 69, "osm_id": "520501413", "code": 5602, "fclass": "railway_halt", "name": "Bogusz\u00f3w-Gorce Wsch\u00f3d"}, "geometry": {"type": "Point", "coordinates": [16.2217619, 50.747924]}}, {"id": "54", "type": "Feature", "properties": {"fid": 70, "osm_id": "560772324", "code": 5601, "fclass": "railway_station", "name": "Szklarska Por\u0119ba G\u00f3rna"}, "geometry": {"type": "Point", "coordinates": [15.5186779, 50.8326128]}}, {"id": "55", "type": "Feature", "properties": {"fid": 71, "osm_id": "560773006", "code": 5601, "fclass": "railway_station", "name": "Piechowice"}, "geometry": {"type": "Point", "coordinates": [15.5914678, 50.8517152]}}, {"id": "56", "type": "Feature", "properties": {"fid": 72, "osm_id": "560773042", "code": 5602, "fclass": "railway_halt", "name": "Piechowice Dolne"}, "geometry": {"type": "Point", "coordinates": [15.6168746, 50.8503917]}}, {"id": "57", "type": "Feature", "properties": {"fid": 73, "osm_id": "570690098", "code": 5601, "fclass": "railway_station", "name": "Mi\u0119dzylesie"}, "geometry": {"type": "Point", "coordinates": [16.6549882, 50.1445089]}}, {"id": "58", "type": "Feature", "properties": {"fid": 74, "osm_id": "588394766", "code": 5601, "fclass": "railway_station", "name": "Mo\u015bcisko Dzier\u017coniowskie"}, "geometry": {"type": "Point", "coordinates": [16.5802246, 50.772134]}}, {"id": "59", "type": "Feature", "properties": {"fid": 75, "osm_id": "606349229", "code": 5602, "fclass": "railway_halt", "name": "Lizawice"}, "geometry": {"type": "Point", "coordinates": [17.214393, 50.9722614]}}, {"id": "60", "type": "Feature", "properties": {"fid": 76, "osm_id": "612312822", "code": 5601, "fclass": "railway_station", "name": "Rogo\u017anica"}, "geometry": {"type": "Point", "coordinates": [16.3019328, 51.0145349]}}, {"id": "61", "type": "Feature", "properties": {"fid": 77, "osm_id": "634146395", "code": 5602, "fclass": "railway_halt", "name": "Sob\u00f3tka"}, "geometry": {"type": "Point", "coordinates": [16.7401009, 50.9053179]}}, {"id": "62", "type": "Feature", "properties": {"fid": 78, "osm_id": "634385567", "code": 5602, "fclass": "railway_halt", "name": "Lubawka"}, "geometry": {"type": "Point", "coordinates": [16.0030366, 50.7058495]}}, {"id": "63", "type": "Feature", "properties": {"fid": 79, "osm_id": "637065353", "code": 5601, "fclass": "railway_station", "name": "Kudowa-Zdr\u00f3j"}, "geometry": {"type": "Point", "coordinates": [16.2440979, 50.4298044]}}, {"id": "64", "type": "Feature", "properties": {"fid": 80, "osm_id": "660586292", "code": 5602, "fclass": "railway_halt", "name": "Wroc\u0142aw Grabiszyn"}, "geometry": {"type": "Point", "coordinates": [16.9742551, 51.0966298]}}, {"id": "65", "type": "Feature", "properties": {"fid": 81, "osm_id": "660810005", "code": 5601, "fclass": "railway_station", "name": "\u017bmigr\u00f3d"}, "geometry": {"type": "Point", "coordinates": [16.9018748, 51.4753316]}}, {"id": "66", "type": "Feature", "properties": {"fid": 82, "osm_id": "678947526", "code": 5602, "fclass": "railway_halt", "name": "Ubocze"}, "geometry": {"type": "Point", "coordinates": [15.4200276, 51.0563184]}}, {"id": "67", "type": "Feature", "properties": {"fid": 83, "osm_id": "700897059", "code": 5602, "fclass": "railway_halt", "name": "Krosnowice K\u0142odzkie"}, "geometry": {"type": "Point", "coordinates": [16.6368908, 50.3923505]}}, {"id": "68", "type": "Feature", "properties": {"fid": 84, "osm_id": "703660050", "code": 5602, "fclass": "railway_halt", "name": "Ole\u015bnica Rataje"}, "geometry": {"type": "Point", "coordinates": [17.3646194, 51.2165073]}}, {"id": "69", "type": "Feature", "properties": {"fid": 85, "osm_id": "709404478", "code": 5602, "fclass": "railway_halt", "name": "Jedlina-Zdr\u00f3j Borowa"}, "geometry": {"type": "Point", "coordinates": [16.3221941, 50.7299222]}}, {"id": "70", "type": "Feature", "properties": {"fid": 86, "osm_id": "746756709", "code": 5601, "fclass": "railway_station", "name": "Boreczek"}, "geometry": {"type": "Point", "coordinates": [17.02458, 50.8789262]}}, {"id": "71", "type": "Feature", "properties": {"fid": 87, "osm_id": "746756710", "code": 5602, "fclass": "railway_halt", "name": "Warkocz"}, "geometry": {"type": "Point", "coordinates": [17.0462196, 50.8296041]}}, {"id": "72", "type": "Feature", "properties": {"fid": 88, "osm_id": "746758076", "code": 5601, "fclass": "railway_station", "name": "Bardo Przy\u0142\u0119k"}, "geometry": {"type": "Point", "coordinates": [16.7579648, 50.5095162]}}, {"id": "73", "type": "Feature", "properties": {"fid": 89, "osm_id": "746758106", "code": 5602, "fclass": "railway_halt", "name": "Bardo \u015al\u0105skie"}, "geometry": {"type": "Point", "coordinates": [16.7340785, 50.5048471]}}, {"id": "74", "type": "Feature", "properties": {"fid": 90, "osm_id": "746759958", "code": 5602, "fclass": "railway_halt", "name": "\u0141awica"}, "geometry": {"type": "Point", "coordinates": [16.6708689, 50.4776747]}}, {"id": "75", "type": "Feature", "properties": {"fid": 91, "osm_id": "746760864", "code": 5601, "fclass": "railway_station", "name": "Domaszk\u00f3w"}, "geometry": {"type": "Point", "coordinates": [16.6552382, 50.2131508]}}, {"id": "76", "type": "Feature", "properties": {"fid": 92, "osm_id": "746761221", "code": 5602, "fclass": "railway_halt", "name": "Roztoki Bystrzyckie"}, "geometry": {"type": "Point", "coordinates": [16.6657711, 50.1876966]}}, {"id": "77", "type": "Feature", "properties": {"fid": 93, "osm_id": "747140661", "code": 5601, "fclass": "railway_station", "name": "Bystrzyca K\u0142odzka Przedmie\u015bcie"}, "geometry": {"type": "Point", "coordinates": [16.6469871, 50.2855574]}}, {"id": "78", "type": "Feature", "properties": {"fid": 94, "osm_id": "789996265", "code": 5601, "fclass": "railway_station", "name": "Wroc\u0142aw Nadodrze"}, "geometry": {"type": "Point", "coordinates": [17.0329905, 51.1256579]}}, {"id": "79", "type": "Feature", "properties": {"fid": 95, "osm_id": "790682004", "code": 5602, "fclass": "railway_halt", "name": "Miku\u0142owa"}, "geometry": {"type": "Point", "coordinates": [15.1078618, 51.0951205]}}, {"id": "80", "type": "Feature", "properties": {"fid": 96, "osm_id": "833677096", "code": 5602, "fclass": "railway_halt", "name": "Doboszowice"}, "geometry": {"type": "Point", "coordinates": [16.9426924, 50.5072887]}}, {"id": "81", "type": "Feature", "properties": {"fid": 97, "osm_id": "842079165", "code": 5601, "fclass": "railway_station", "name": "Wa\u0142brzych Miasto"}, "geometry": {"type": "Point", "coordinates": [16.2852337, 50.7862286]}}, {"id": "82", "type": "Feature", "properties": {"fid": 98, "osm_id": "873825601", "code": 5601, "fclass": "railway_station", "name": "Duszniki-Zdr\u00f3j"}, "geometry": {"type": "Point", "coordinates": [16.3858127, 50.4090324]}}, {"id": "83", "type": "Feature", "properties": {"fid": 99, "osm_id": "907975411", "code": 5602, "fclass": "railway_halt", "name": "Szklarska Por\u0119ba Huta"}, "geometry": {"type": "Point", "coordinates": [15.4970629, 50.8266625]}}, {"id": "84", "type": "Feature", "properties": {"fid": 100, "osm_id": "967207655", "code": 5601, "fclass": "railway_station", "name": "Czernica Wroc\u0142awska"}, "geometry": {"type": "Point", "coordinates": [17.2358061, 51.0496835]}}, {"id": "85", "type": "Feature", "properties": {"fid": 101, "osm_id": "967207656", "code": 5602, "fclass": "railway_halt", "name": "Dobrzykowice Wroc\u0142awskie"}, "geometry": {"type": "Point", "coordinates": [17.1800256, 51.0875528]}}, {"id": "86", "type": "Feature", "properties": {"fid": 102, "osm_id": "967207673", "code": 5602, "fclass": "railway_halt", "name": "Nadolice Wielkie"}, "geometry": {"type": "Point", "coordinates": [17.2508318, 51.0798631]}}, {"id": "87", "type": "Feature", "properties": {"fid": 103, "osm_id": "967301818", "code": 5602, "fclass": "railway_halt", "name": "Minkowice O\u0142awskie"}, "geometry": {"type": "Point", "coordinates": [17.4570716, 51.0118022]}}, {"id": "88", "type": "Feature", "properties": {"fid": 104, "osm_id": "967301950", "code": 5602, "fclass": "railway_halt", "name": "Kopalina"}, "geometry": {"type": "Point", "coordinates": [17.4040382, 51.0210942]}}, {"id": "89", "type": "Feature", "properties": {"fid": 106, "osm_id": "1005966746", "code": 5601, "fclass": "railway_station", "name": "Brzeg Dolny"}, "geometry": {"type": "Point", "coordinates": [16.7250326, 51.2669629]}}, {"id": "90", "type": "Feature", "properties": {"fid": 107, "osm_id": "1015548683", "code": 5601, "fclass": "railway_station", "name": "Sob\u00f3tka Zachodnia"}, "geometry": {"type": "Point", "coordinates": [16.7007723, 50.9078368]}}, {"id": "91", "type": "Feature", "properties": {"fid": 108, "osm_id": "1038540783", "code": 5601, "fclass": "railway_station", "name": "Jelenia G\u00f3ra Zachodnia"}, "geometry": {"type": "Point", "coordinates": [15.719455, 50.9005971]}}, {"id": "92", "type": "Feature", "properties": {"fid": 109, "osm_id": "1038553441", "code": 5602, "fclass": "railway_halt", "name": "Szklarska Por\u0119ba Dolna"}, "geometry": {"type": "Point", "coordinates": [15.5569553, 50.8483578]}}, {"id": "93", "type": "Feature", "properties": {"fid": 110, "osm_id": "1048964566", "code": 5602, "fclass": "railway_halt", "name": "Szklarska Por\u0119ba \u015arednia"}, "geometry": {"type": "Point", "coordinates": [15.5399788, 50.8384681]}}, {"id": "94", "type": "Feature", "properties": {"fid": 111, "osm_id": "1089058672", "code": 5601, "fclass": "railway_station", "name": "Chojn\u00f3w"}, "geometry": {"type": "Point", "coordinates": [15.9376619, 51.2776886]}}, {"id": "95", "type": "Feature", "properties": {"fid": 112, "osm_id": "1091838853", "code": 5602, "fclass": "railway_halt", "name": "Wroc\u0142aw Broch\u00f3w"}, "geometry": {"type": "Point", "coordinates": [17.0846248, 51.0642794]}}, {"id": "96", "type": "Feature", "properties": {"fid": 113, "osm_id": "1112631418", "code": 5602, "fclass": "railway_halt", "name": "Brochocin Trzebnicki"}, "geometry": {"type": "Point", "coordinates": [17.0941302, 51.2760267]}}, {"id": "97", "type": "Feature", "properties": {"fid": 114, "osm_id": "1154540415", "code": 5601, "fclass": "railway_station", "name": "Skokowa"}, "geometry": {"type": "Point", "coordinates": [16.8489434, 51.3870757]}}, {"id": "98", "type": "Feature", "properties": {"fid": 115, "osm_id": "1272881984", "code": 5602, "fclass": "railway_halt", "name": "Pierwosz\u00f3w Mi\u0142ocin"}, "geometry": {"type": "Point", "coordinates": [17.0989112, 51.2552194]}}, {"id": "99", "type": "Feature", "properties": {"fid": 116, "osm_id": "1278381123", "code": 5602, "fclass": "railway_halt", "name": "Korze\u0144sko"}, "geometry": {"type": "Point", "coordinates": [16.8722387, 51.5446015]}}, {"id": "100", "type": "Feature", "properties": {"fid": 117, "osm_id": "1278381140", "code": 5602, "fclass": "railway_halt", "name": "Garbce"}, "geometry": {"type": "Point", "coordinates": [16.8902639, 51.5125596]}}, {"id": "101", "type": "Feature", "properties": {"fid": 118, "osm_id": "1280940818", "code": 5601, "fclass": "railway_station", "name": "\u015acinawka \u015arednia"}, "geometry": {"type": "Point", "coordinates": [16.5054444, 50.5263559]}}, {"id": "102", "type": "Feature", "properties": {"fid": 119, "osm_id": "1280966256", "code": 5602, "fclass": "railway_halt", "name": "Kulin K\u0142odzki"}, "geometry": {"type": "Point", "coordinates": [16.3254909, 50.4193723]}}, {"id": "103", "type": "Feature", "properties": {"fid": 120, "osm_id": "1281264800", "code": 5602, "fclass": "railway_halt", "name": "G\u00f3rzyniec"}, "geometry": {"type": "Point", "coordinates": [15.5681957, 50.8600483]}}, {"id": "104", "type": "Feature", "properties": {"fid": 121, "osm_id": "1327917491", "code": 5602, "fclass": "railway_halt", "name": "\u0141ososiowice"}, "geometry": {"type": "Point", "coordinates": [16.6748675, 51.2972667]}}, {"id": "105", "type": "Feature", "properties": {"fid": 122, "osm_id": "1397290730", "code": 5602, "fclass": "railway_halt", "name": "Rudna Miasto"}, "geometry": {"type": "Point", "coordinates": [16.2696123, 51.5057432]}}, {"id": "106", "type": "Feature", "properties": {"fid": 123, "osm_id": "1401192473", "code": 5601, "fclass": "railway_station", "name": "Wroc\u0142aw Psie Pole"}, "geometry": {"type": "Point", "coordinates": [17.1185445, 51.150452]}}, {"id": "107", "type": "Feature", "properties": {"fid": 124, "osm_id": "1420388750", "code": 5602, "fclass": "railway_halt", "name": "D\u0105browa Ole\u015bnicka"}, "geometry": {"type": "Point", "coordinates": [17.3689153, 51.2300777]}}, {"id": "108", "type": "Feature", "properties": {"fid": 125, "osm_id": "1492960330", "code": 5601, "fclass": "railway_station", "name": "Stara Kamienica"}, "geometry": {"type": "Point", "coordinates": [15.5659104, 50.9139896]}}, {"id": "109", "type": "Feature", "properties": {"fid": 126, "osm_id": "1508746056", "code": 5601, "fclass": "railway_station", "name": "Biskupice O\u0142awskie"}, "geometry": {"type": "Point", "coordinates": [17.5155391, 50.9939882]}}, {"id": "110", "type": "Feature", "properties": {"fid": 127, "osm_id": "1508748545", "code": 5601, "fclass": "railway_station", "name": "Jelcz-Laskowice"}, "geometry": {"type": "Point", "coordinates": [17.3454105, 51.037022]}}, {"id": "111", "type": "Feature", "properties": {"fid": 128, "osm_id": "1521090728", "code": 5601, "fclass": "railway_station", "name": "Wroc\u0142aw Pracze"}, "geometry": {"type": "Point", "coordinates": [16.9031293, 51.1700195]}}, {"id": "112", "type": "Feature", "properties": {"fid": 129, "osm_id": "1522175250", "code": 5601, "fclass": "railway_station", "name": "Wroc\u0142aw Ku\u017aniki"}, "geometry": {"type": "Point", "coordinates": [16.9522088, 51.1280409]}}, {"id": "113", "type": "Feature", "properties": {"fid": 130, "osm_id": "1540736104", "code": 5602, "fclass": "railway_halt", "name": "Wroc\u0142aw Stadion"}, "geometry": {"type": "Point", "coordinates": [16.9406255, 51.1370304]}}, {"id": "114", "type": "Feature", "properties": {"fid": 131, "osm_id": "1571318397", "code": 5602, "fclass": "railway_halt", "name": "Las\u00f3w"}, "geometry": {"type": "Point", "coordinates": [15.0350975, 51.2251921]}}, {"id": "115", "type": "Feature", "properties": {"fid": 132, "osm_id": "1571318418", "code": 5602, "fclass": "railway_halt", "name": "Zagajnik"}, "geometry": {"type": "Point", "coordinates": [15.2994817, 51.2701185]}}, {"id": "116", "type": "Feature", "properties": {"fid": 133, "osm_id": "1587493224", "code": 5602, "fclass": "railway_halt", "name": "Jelenia G\u00f3ra Orle"}, "geometry": {"type": "Point", "coordinates": [15.6573613, 50.8639918]}}, {"id": "117", "type": "Feature", "properties": {"fid": 134, "osm_id": "1588340145", "code": 5601, "fclass": "railway_station", "name": "Mi\u0119kinia"}, "geometry": {"type": "Point", "coordinates": [16.7396367, 51.1882562]}}, {"id": "118", "type": "Feature", "properties": {"fid": 135, "osm_id": "1588340235", "code": 5602, "fclass": "railway_halt", "name": "Mroz\u00f3w"}, "geometry": {"type": "Point", "coordinates": [16.7939604, 51.1836648]}}, {"id": "119", "type": "Feature", "properties": {"fid": 136, "osm_id": "1642733781", "code": 5601, "fclass": "railway_station", "name": "Jelenia G\u00f3ra"}, "geometry": {"type": "Point", "coordinates": [15.7559869, 50.9025882]}}, {"id": "120", "type": "Feature", "properties": {"fid": 137, "osm_id": "1729229709", "code": 5602, "fclass": "railway_halt", "name": "Przyby\u0142owice"}, "geometry": {"type": "Point", "coordinates": [16.1586891, 51.1251361]}}, {"id": "121", "type": "Feature", "properties": {"fid": 138, "osm_id": "1729229718", "code": 5602, "fclass": "railway_halt", "name": "Stary Jawor"}, "geometry": {"type": "Point", "coordinates": [16.161244, 51.0789822]}}, {"id": "122", "type": "Feature", "properties": {"fid": 139, "osm_id": "1729229742", "code": 5602, "fclass": "railway_halt", "name": "Ja\u015bkowice Legnickie"}, "geometry": {"type": "Point", "coordinates": [16.3141395, 51.2151038]}}, {"id": "123", "type": "Feature", "properties": {"fid": 140, "osm_id": "1729229743", "code": 5602, "fclass": "railway_halt", "name": "Szczedrzykowice"}, "geometry": {"type": "Point", "coordinates": [16.3506934, 51.2151482]}}, {"id": "124", "type": "Feature", "properties": {"fid": 141, "osm_id": "1733534762", "code": 5602, "fclass": "railway_halt", "name": "\u015aroda \u015al\u0105ska"}, "geometry": {"type": "Point", "coordinates": [16.6065372, 51.18943]}}, {"id": "125", "type": "Feature", "properties": {"fid": 142, "osm_id": "1744509719", "code": 5601, "fclass": "railway_station", "name": "Pi\u0142awa G\u00f3rna"}, "geometry": {"type": "Point", "coordinates": [16.7732632, 50.6787662]}}, {"id": "126", "type": "Feature", "properties": {"fid": 143, "osm_id": "1749572286", "code": 5601, "fclass": "railway_station", "name": "Krzep\u00f3w"}, "geometry": {"type": "Point", "coordinates": [16.1335897, 51.6447811]}}, {"id": "127", "type": "Feature", "properties": {"fid": 144, "osm_id": "1749572287", "code": 5602, "fclass": "railway_halt", "name": "G\u0142og\u00f3w Huta"}, "geometry": {"type": "Point", "coordinates": [15.9922495, 51.6754215]}}, {"id": "128", "type": "Feature", "properties": {"fid": 145, "osm_id": "1779135843", "code": 5602, "fclass": "railway_halt", "name": "Jelenia G\u00f3ra Cieplice"}, "geometry": {"type": "Point", "coordinates": [15.6852449, 50.8697521]}}, {"id": "129", "type": "Feature", "properties": {"fid": 146, "osm_id": "1779137875", "code": 5602, "fclass": "railway_halt", "name": "Jelenia G\u00f3ra Sobiesz\u00f3w"}, "geometry": {"type": "Point", "coordinates": [15.6452871, 50.8517332]}}, {"id": "130", "type": "Feature", "properties": {"fid": 147, "osm_id": "1779319907", "code": 5602, "fclass": "railway_halt", "name": "Zakrz\u00f3w Kotowice"}, "geometry": {"type": "Point", "coordinates": [17.210066, 51.0357525]}}, {"id": "131", "type": "Feature", "properties": {"fid": 148, "osm_id": "1796274362", "code": 5602, "fclass": "railway_halt", "name": "Wroc\u0142aw Wojn\u00f3w"}, "geometry": {"type": "Point", "coordinates": [17.1576886, 51.1035379]}}, {"id": "132", "type": "Feature", "properties": {"fid": 149, "osm_id": "1803599530", "code": 5602, "fclass": "railway_halt", "name": "Siedlec Trzebnicki"}, "geometry": {"type": "Point", "coordinates": [17.1188187, 51.2336489]}}, {"id": "133", "type": "Feature", "properties": {"fid": 150, "osm_id": "1817597365", "code": 5602, "fclass": "railway_halt", "name": "Z\u0119bice Wroc\u0142awskie"}, "geometry": {"type": "Point", "coordinates": [17.1620734, 51.0066673]}}, {"id": "134", "type": "Feature", "properties": {"fid": 151, "osm_id": "1843449477", "code": 5601, "fclass": "railway_station", "name": "Okmiany"}, "geometry": {"type": "Point", "coordinates": [15.7785663, 51.2709572]}}, {"id": "135", "type": "Feature", "properties": {"fid": 152, "osm_id": "1843449478", "code": 5602, "fclass": "railway_halt", "name": "Osetnica"}, "geometry": {"type": "Point", "coordinates": [15.847267, 51.2618088]}}, {"id": "136", "type": "Feature", "properties": {"fid": 153, "osm_id": "1854218754", "code": 5601, "fclass": "railway_station", "name": "K\u0142odzko G\u0142\u00f3wne"}, "geometry": {"type": "Point", "coordinates": [16.6567711, 50.4513332]}}, {"id": "137", "type": "Feature", "properties": {"fid": 154, "osm_id": "1854224907", "code": 5601, "fclass": "railway_station", "name": "K\u0142odzko Miasto"}, "geometry": {"type": "Point", "coordinates": [16.658236, 50.4345956]}}, {"id": "138", "type": "Feature", "properties": {"fid": 155, "osm_id": "1855369358", "code": 5602, "fclass": "railway_halt", "name": "Strzelce \u015awidnickie"}, "geometry": {"type": "Point", "coordinates": [16.660991, 50.9109926]}}, {"id": "139", "type": "Feature", "properties": {"fid": 156, "osm_id": "1864491167", "code": 5602, "fclass": "railway_halt", "name": "Lewin K\u0142odzki"}, "geometry": {"type": "Point", "coordinates": [16.2746913, 50.4055371]}}, {"id": "140", "type": "Feature", "properties": {"fid": 157, "osm_id": "1870143073", "code": 5601, "fclass": "railway_station", "name": "Rusz\u00f3w"}, "geometry": {"type": "Point", "coordinates": [15.1766348, 51.401063]}}, {"id": "141", "type": "Feature", "properties": {"fid": 158, "osm_id": "1883818044", "code": 5602, "fclass": "railway_halt", "name": "D\u0142ugopole-Zdr\u00f3j"}, "geometry": {"type": "Point", "coordinates": [16.6378568, 50.2384702]}}, {"id": "142", "type": "Feature", "properties": {"fid": 160, "osm_id": "1945859651", "code": 5602, "fclass": "railway_halt", "name": "Jelenia G\u00f3ra Przemys\u0142owa"}, "geometry": {"type": "Point", "coordinates": [15.7051811, 50.8876763]}}, {"id": "143", "type": "Feature", "properties": {"fid": 161, "osm_id": "1947166706", "code": 5602, "fclass": "railway_halt", "name": "P\u0119g\u00f3w"}, "geometry": {"type": "Point", "coordinates": [16.9271182, 51.2471851]}}, {"id": "144", "type": "Feature", "properties": {"fid": 163, "osm_id": "2003255314", "code": 5601, "fclass": "railway_station", "name": "Mi\u0142kowice"}, "geometry": {"type": "Point", "coordinates": [16.0546142, 51.2555649]}}, {"id": "145", "type": "Feature", "properties": {"fid": 164, "osm_id": "2003256675", "code": 5602, "fclass": "railway_halt", "name": "Jezierzany"}, "geometry": {"type": "Point", "coordinates": [16.0975929, 51.2356821]}}, {"id": "146", "type": "Feature", "properties": {"fid": 165, "osm_id": "2003309188", "code": 5601, "fclass": "railway_station", "name": "Dobroszyce"}, "geometry": {"type": "Point", "coordinates": [17.3637981, 51.2705063]}}, {"id": "147", "type": "Feature", "properties": {"fid": 166, "osm_id": "2003311924", "code": 5601, "fclass": "railway_station", "name": "Grabowno Wielkie"}, "geometry": {"type": "Point", "coordinates": [17.403474, 51.34322]}}, {"id": "148", "type": "Feature", "properties": {"fid": 167, "osm_id": "2003312767", "code": 5601, "fclass": "railway_station", "name": "Bukowina Sycowska"}, "geometry": {"type": "Point", "coordinates": [17.5832169, 51.3881714]}}, {"id": "149", "type": "Feature", "properties": {"fid": 170, "osm_id": "2003357914", "code": 5602, "fclass": "railway_halt", "name": "Cieszk\u00f3w"}, "geometry": {"type": "Point", "coordinates": [17.3526175, 51.6313553]}}, {"id": "150", "type": "Feature", "properties": {"fid": 171, "osm_id": "2003364457", "code": 5601, "fclass": "railway_station", "name": "Bukowice Trzebnickie"}, "geometry": {"type": "Point", "coordinates": [17.368541, 51.3995076]}}, {"id": "151", "type": "Feature", "properties": {"fid": 172, "osm_id": "2075243777", "code": 5602, "fclass": "railway_halt", "name": "Bierkowice"}, "geometry": {"type": "Point", "coordinates": [16.6050534, 50.4755377]}}, {"id": "152", "type": "Feature", "properties": {"fid": 173, "osm_id": "2075261949", "code": 5602, "fclass": "railway_halt", "name": "Nowa Ruda Zdrojowisko"}, "geometry": {"type": "Point", "coordinates": [16.5095171, 50.6120442]}}, {"id": "153", "type": "Feature", "properties": {"fid": 174, "osm_id": "2075274330", "code": 5602, "fclass": "railway_halt", "name": "\u015awierki Dolne"}, "geometry": {"type": "Point", "coordinates": [16.4324995, 50.6323853]}}, {"id": "154", "type": "Feature", "properties": {"fid": 175, "osm_id": "2075289365", "code": 5602, "fclass": "railway_halt", "name": "Bartnica"}, "geometry": {"type": "Point", "coordinates": [16.4079523, 50.6419372]}}, {"id": "155", "type": "Feature", "properties": {"fid": 176, "osm_id": "2075308765", "code": 5601, "fclass": "railway_station", "name": "Jedlina-Zdr\u00f3j"}, "geometry": {"type": "Point", "coordinates": [16.3430171, 50.7115424]}}, {"id": "156", "type": "Feature", "properties": {"fid": 177, "osm_id": "2126723884", "code": 5601, "fclass": "railway_station", "name": "Jawor"}, "geometry": {"type": "Point", "coordinates": [16.1984434, 51.0550466]}}, {"id": "157", "type": "Feature", "properties": {"fid": 178, "osm_id": "2126759021", "code": 5602, "fclass": "railway_halt", "name": "Gocza\u0142k\u00f3w"}, "geometry": {"type": "Point", "coordinates": [16.3253301, 51.0084324]}}, {"id": "158", "type": "Feature", "properties": {"fid": 179, "osm_id": "2136783800", "code": 5601, "fclass": "railway_station", "name": "Karpacz"}, "geometry": {"type": "Point", "coordinates": [15.7616497, 50.7825021]}}, {"id": "159", "type": "Feature", "properties": {"fid": 180, "osm_id": "2146199426", "code": 5602, "fclass": "railway_halt", "name": "Rybnica"}, "geometry": {"type": "Point", "coordinates": [15.6458441, 50.9104773]}}, {"id": "160", "type": "Feature", "properties": {"fid": 181, "osm_id": "2146200143", "code": 5602, "fclass": "railway_halt", "name": "Kwieciszowice"}, "geometry": {"type": "Point", "coordinates": [15.5036777, 50.9242122]}}, {"id": "161", "type": "Feature", "properties": {"fid": 182, "osm_id": "2146200222", "code": 5601, "fclass": "railway_station", "name": "R\u0119bisz\u00f3w"}, "geometry": {"type": "Point", "coordinates": [15.456031, 50.9482194]}}, {"id": "162", "type": "Feature", "properties": {"fid": 183, "osm_id": "2146200485", "code": 5602, "fclass": "railway_halt", "name": "M\u0142y\u0144sko"}, "geometry": {"type": "Point", "coordinates": [15.4504497, 50.9895358]}}, {"id": "163", "type": "Feature", "properties": {"fid": 184, "osm_id": "2146200605", "code": 5601, "fclass": "railway_station", "name": "Gryf\u00f3w \u015al\u0105ski"}, "geometry": {"type": "Point", "coordinates": [15.4289759, 51.0339789]}}, {"id": "164", "type": "Feature", "properties": {"fid": 185, "osm_id": "2146201101", "code": 5602, "fclass": "railway_halt", "name": "Olszyna Luba\u0144ska"}, "geometry": {"type": "Point", "coordinates": [15.3806451, 51.06969]}}, {"id": "165", "type": "Feature", "properties": {"fid": 186, "osm_id": "2146201760", "code": 5602, "fclass": "railway_halt", "name": "Batowice Luba\u0144skie"}, "geometry": {"type": "Point", "coordinates": [15.1556959, 51.0908483]}}, {"id": "166", "type": "Feature", "properties": {"fid": 187, "osm_id": "2146202129", "code": 5601, "fclass": "railway_station", "name": "Jerzmanki"}, "geometry": {"type": "Point", "coordinates": [15.0609584, 51.1277582]}}, {"id": "167", "type": "Feature", "properties": {"fid": 188, "osm_id": "2146569078", "code": 5601, "fclass": "railway_station", "name": "Rokitki"}, "geometry": {"type": "Point", "coordinates": [15.8932471, 51.3354313]}}, {"id": "168", "type": "Feature", "properties": {"fid": 189, "osm_id": "2146570557", "code": 5602, "fclass": "railway_halt", "name": "Wierzbowa \u015al\u0105ska"}, "geometry": {"type": "Point", "coordinates": [15.7587841, 51.3969375]}}, {"id": "169", "type": "Feature", "properties": {"fid": 191, "osm_id": "2146579435", "code": 5602, "fclass": "railway_halt", "name": "Stanowice"}, "geometry": {"type": "Point", "coordinates": [16.3748773, 50.9299386]}}, {"id": "170", "type": "Feature", "properties": {"fid": 192, "osm_id": "2146580036", "code": 5602, "fclass": "railway_halt", "name": "Boles\u0142awice \u015awidnickie"}, "geometry": {"type": "Point", "coordinates": [16.4646272, 50.8876906]}}, {"id": "171", "type": "Feature", "properties": {"fid": 193, "osm_id": "2146583181", "code": 5602, "fclass": "railway_halt", "name": "Krzy\u017cowa"}, "geometry": {"type": "Point", "coordinates": [16.530145, 50.7939188]}}, {"id": "172", "type": "Feature", "properties": {"fid": 194, "osm_id": "2146605465", "code": 5602, "fclass": "railway_halt", "name": "Stary W\u0119gliniec"}, "geometry": {"type": "Point", "coordinates": [15.1951047, 51.3076455]}}, {"id": "173", "type": "Feature", "properties": {"fid": 195, "osm_id": "2146607462", "code": 5602, "fclass": "railway_halt", "name": "Jagodzin"}, "geometry": {"type": "Point", "coordinates": [15.1702685, 51.3558757]}}, {"id": "174", "type": "Feature", "properties": {"fid": 196, "osm_id": "2146611600", "code": 5602, "fclass": "railway_halt", "name": "Okr\u0105glica"}, "geometry": {"type": "Point", "coordinates": [15.1816077, 51.4372028]}}, {"id": "175", "type": "Feature", "properties": {"fid": 197, "osm_id": "2146625702", "code": 5601, "fclass": "railway_station", "name": "Brzezinka \u015aredzka"}, "geometry": {"type": "Point", "coordinates": [16.8368026, 51.2197167]}}, {"id": "176", "type": "Feature", "properties": {"fid": 198, "osm_id": "2146626382", "code": 5602, "fclass": "railway_halt", "name": "Czerna Ma\u0142a"}, "geometry": {"type": "Point", "coordinates": [16.8035473, 51.2299758]}}, {"id": "177", "type": "Feature", "properties": {"fid": 199, "osm_id": "2147439177", "code": 5601, "fclass": "railway_station", "name": "\u015acinawa"}, "geometry": {"type": "Point", "coordinates": [16.4218147, 51.4091111]}}, {"id": "178", "type": "Feature", "properties": {"fid": 200, "osm_id": "2147440480", "code": 5602, "fclass": "railway_halt", "name": "Che\u0142mek Wo\u0142owski"}, "geometry": {"type": "Point", "coordinates": [16.359486, 51.4560519]}}, {"id": "179", "type": "Feature", "properties": {"fid": 201, "osm_id": "2147441777", "code": 5601, "fclass": "railway_station", "name": "Gr\u0119bocice"}, "geometry": {"type": "Point", "coordinates": [16.1848672, 51.5934999]}}, {"id": "180", "type": "Feature", "properties": {"fid": 202, "osm_id": "2147445172", "code": 5601, "fclass": "railway_station", "name": "G\u0142og\u00f3w Wr\u00f3blin"}, "geometry": {"type": "Point", "coordinates": [15.9543821, 51.6865915]}}, {"id": "181", "type": "Feature", "properties": {"fid": 203, "osm_id": "2147445245", "code": 5602, "fclass": "railway_halt", "name": "Brzeg G\u0142ogowski"}, "geometry": {"type": "Point", "coordinates": [15.9179705, 51.6910739]}}, {"id": "182", "type": "Feature", "properties": {"fid": 204, "osm_id": "2147445672", "code": 5602, "fclass": "railway_halt", "name": "Czerna"}, "geometry": {"type": "Point", "coordinates": [15.8845835, 51.7022546]}}, {"id": "183", "type": "Feature", "properties": {"fid": 205, "osm_id": "2161002971", "code": 5601, "fclass": "railway_station", "name": "Zar\u0119ba"}, "geometry": {"type": "Point", "coordinates": [15.2195728, 51.0981222]}}, {"id": "184", "type": "Feature", "properties": {"fid": 206, "osm_id": "2270778851", "code": 5602, "fclass": "railway_halt", "name": "B\u0142a\u017ckowa"}, "geometry": {"type": "Point", "coordinates": [15.9900281, 50.7442392]}}, {"id": "185", "type": "Feature", "properties": {"fid": 207, "osm_id": "2333184869", "code": 5602, "fclass": "railway_halt", "name": "Mietk\u00f3w"}, "geometry": {"type": "Point", "coordinates": [16.6560936, 50.9851882]}}, {"id": "186", "type": "Feature", "properties": {"fid": 208, "osm_id": "2333184992", "code": 5601, "fclass": "railway_station", "name": "Imbramowice"}, "geometry": {"type": "Point", "coordinates": [16.5781401, 50.9633658]}}, {"id": "187", "type": "Feature", "properties": {"fid": 209, "osm_id": "2334430783", "code": 5602, "fclass": "railway_halt", "name": "K\u0142odzko Zag\u00f3rze"}, "geometry": {"type": "Point", "coordinates": [16.6129431, 50.4150344]}}, {"id": "188", "type": "Feature", "properties": {"fid": 210, "osm_id": "2424165048", "code": 5602, "fclass": "railway_halt", "name": "Pie\u0144sk"}, "geometry": {"type": "Point", "coordinates": [15.0468919, 51.2452131]}}, {"id": "189", "type": "Feature", "properties": {"fid": 211, "osm_id": "2477849748", "code": 5601, "fclass": "railway_station", "name": "Giera\u0142t\u00f3w Wykroty"}, "geometry": {"type": "Point", "coordinates": [15.2845742, 51.2168129]}}, {"id": "190", "type": "Feature", "properties": {"fid": 212, "osm_id": "2555343772", "code": 5601, "fclass": "railway_station", "name": "Paczk\u00f3w"}, "geometry": {"type": "Point", "coordinates": [17.0110551, 50.4784247]}}, {"id": "191", "type": "Feature", "properties": {"fid": 213, "osm_id": "2562003930", "code": 5601, "fclass": "railway_station", "name": "Wo\u0142\u00f3w"}, "geometry": {"type": "Point", "coordinates": [16.6328844, 51.3339266]}}, {"id": "192", "type": "Feature", "properties": {"fid": 214, "osm_id": "2624571493", "code": 5602, "fclass": "railway_halt", "name": "Wroc\u0142aw R\u00f3\u017canka"}, "geometry": {"type": "Point", "coordinates": [17.00371, 51.1379872]}}, {"id": "193", "type": "Feature", "properties": {"fid": 215, "osm_id": "2627870779", "code": 5601, "fclass": "railway_station", "name": "Legnica"}, "geometry": {"type": "Point", "coordinates": [16.1696549, 51.2140928]}}, {"id": "194", "type": "Feature", "properties": {"fid": 216, "osm_id": "2710791885", "code": 5602, "fclass": "railway_halt", "name": "Orzeszk\u00f3w"}, "geometry": {"type": "Point", "coordinates": [16.5081197, 51.3939289]}}, {"id": "195", "type": "Feature", "properties": {"fid": 220, "osm_id": "2920851838", "code": 5601, "fclass": "railway_station", "name": "Zgorzelec"}, "geometry": {"type": "Point", "coordinates": [15.0030407, 51.1401724]}}, {"id": "196", "type": "Feature", "properties": {"fid": 222, "osm_id": "3322950957", "code": 5601, "fclass": "railway_station", "name": "Twardog\u00f3ra"}, "geometry": {"type": "Point", "coordinates": [17.4677429, 51.360263]}}, {"id": "197", "type": "Feature", "properties": {"fid": 223, "osm_id": "3357286930", "code": 5601, "fclass": "railway_station", "name": "G\u0142og\u00f3w"}, "geometry": {"type": "Point", "coordinates": [16.0798664, 51.6696063]}}, {"id": "198", "type": "Feature", "properties": {"fid": 224, "osm_id": "3411151874", "code": 5601, "fclass": "railway_station", "name": "Szczytna"}, "geometry": {"type": "Point", "coordinates": [16.4497865, 50.4083659]}}, {"id": "199", "type": "Feature", "properties": {"fid": 225, "osm_id": "3425723107", "code": 5601, "fclass": "railway_station", "name": "Janowice Wielkie"}, "geometry": {"type": "Point", "coordinates": [15.9187624, 50.8785015]}}, {"id": "200", "type": "Feature", "properties": {"fid": 226, "osm_id": "3429866725", "code": 5602, "fclass": "railway_halt", "name": "G\u0142og\u00f3wko"}, "geometry": {"type": "Point", "coordinates": [16.0954798, 51.735143]}}, {"id": "201", "type": "Feature", "properties": {"fid": 227, "osm_id": "3547734926", "code": 5602, "fclass": "railway_halt", "name": "Jelcz Mi\u0142oszyce"}, "geometry": {"type": "Point", "coordinates": [17.3054006, 51.0445694]}}, {"id": "202", "type": "Feature", "properties": {"fid": 228, "osm_id": "3561494614", "code": 5602, "fclass": "railway_halt", "name": "Ramisz\u00f3w"}, "geometry": {"type": "Point", "coordinates": [17.0983438, 51.1931981]}}, {"id": "203", "type": "Feature", "properties": {"fid": 229, "osm_id": "3607481169", "code": 5601, "fclass": "railway_station", "name": "D\u0142ugo\u0142\u0119ka"}, "geometry": {"type": "Point", "coordinates": [17.1944543, 51.1784645]}}, {"id": "204", "type": "Feature", "properties": {"fid": 230, "osm_id": "3623849395", "code": 5602, "fclass": "railway_halt", "name": "Wroc\u0142aw Zakrz\u00f3w"}, "geometry": {"type": "Point", "coordinates": [17.1221927, 51.1587445]}}, {"id": "205", "type": "Feature", "properties": {"fid": 231, "osm_id": "3660319134", "code": 5601, "fclass": "railway_station", "name": "Mi\u0119dzyb\u00f3rz Sycowski"}, "geometry": {"type": "Point", "coordinates": [17.6529599, 51.4010511]}}, {"id": "206", "type": "Feature", "properties": {"fid": 232, "osm_id": "3681874597", "code": 5601, "fclass": "railway_station", "name": "Z\u0105bkowice \u015al\u0105skie"}, "geometry": {"type": "Point", "coordinates": [16.812773, 50.5972985]}}, {"id": "207", "type": "Feature", "properties": {"fid": 233, "osm_id": "3682234687", "code": 5601, "fclass": "railway_station", "name": "Dzier\u017coni\u00f3w \u015al\u0105ski"}, "geometry": {"type": "Point", "coordinates": [16.6407227, 50.7243526]}}, {"id": "208", "type": "Feature", "properties": {"fid": 234, "osm_id": "3682511205", "code": 5601, "fclass": "railway_station", "name": "\u015awidnica Miasto"}, "geometry": {"type": "Point", "coordinates": [16.4815065, 50.8412151]}}, {"id": "209", "type": "Feature", "properties": {"fid": 235, "osm_id": "3683522126", "code": 5601, "fclass": "railway_station", "name": "Jaworzyna \u015al\u0105ska"}, "geometry": {"type": "Point", "coordinates": [16.4288847, 50.9124931]}}, {"id": "210", "type": "Feature", "properties": {"fid": 236, "osm_id": "3683604050", "code": 5601, "fclass": "railway_station", "name": "Strzegom"}, "geometry": {"type": "Point", "coordinates": [16.3589469, 50.9745685]}}, {"id": "211", "type": "Feature", "properties": {"fid": 237, "osm_id": "3740579332", "code": 5601, "fclass": "railway_station", "name": "\u017bar\u00f3w"}, "geometry": {"type": "Point", "coordinates": [16.4927789, 50.9394957]}}, {"id": "212", "type": "Feature", "properties": {"fid": 238, "osm_id": "3875028476", "code": 5602, "fclass": "railway_halt", "name": "Ksi\u0119ginice"}, "geometry": {"type": "Point", "coordinates": [16.76381, 51.2422343]}}, {"id": "213", "type": "Feature", "properties": {"fid": 239, "osm_id": "3881677785", "code": 5602, "fclass": "railway_halt", "name": "Zgorzelec Miasto"}, "geometry": {"type": "Point", "coordinates": [15.0201231, 51.1548002]}}, {"id": "214", "type": "Feature", "properties": {"fid": 240, "osm_id": "3885915223", "code": 5601, "fclass": "railway_station", "name": "Siechnice"}, "geometry": {"type": "Point", "coordinates": [17.1425423, 51.0382566]}}, {"id": "215", "type": "Feature", "properties": {"fid": 241, "osm_id": "3986093725", "code": 5601, "fclass": "railway_station", "name": "Rudna Gwizdan\u00f3w"}, "geometry": {"type": "Point", "coordinates": [16.2809748, 51.5290973]}}, {"id": "216", "type": "Feature", "properties": {"fid": 242, "osm_id": "4007263784", "code": 5601, "fclass": "railway_station", "name": "Wroc\u0142aw Zachodni"}, "geometry": {"type": "Point", "coordinates": [16.949504, 51.0899487]}}, {"id": "217", "type": "Feature", "properties": {"fid": 243, "osm_id": "4010817323", "code": 5601, "fclass": "railway_station", "name": "\u015awiebodzice"}, "geometry": {"type": "Point", "coordinates": [16.3350456, 50.8599745]}}, {"id": "218", "type": "Feature", "properties": {"fid": 244, "osm_id": "4011268703", "code": 5601, "fclass": "railway_station", "name": "Wa\u0142brzych Fabryczny"}, "geometry": {"type": "Point", "coordinates": [16.2670481, 50.7613941]}}, {"id": "219", "type": "Feature", "properties": {"fid": 245, "osm_id": "4014368091", "code": 5602, "fclass": "railway_halt", "name": "Witk\u00f3w \u015al\u0105ski"}, "geometry": {"type": "Point", "coordinates": [16.1274664, 50.7938256]}}, {"id": "220", "type": "Feature", "properties": {"fid": 246, "osm_id": "4014398630", "code": 5601, "fclass": "railway_station", "name": "S\u0119dzis\u0142aw"}, "geometry": {"type": "Point", "coordinates": [16.0698493, 50.8134159]}}, {"id": "221", "type": "Feature", "properties": {"fid": 247, "osm_id": "4014521900", "code": 5601, "fclass": "railway_station", "name": "Marcisz\u00f3w"}, "geometry": {"type": "Point", "coordinates": [16.0076011, 50.8514982]}}, {"id": "222", "type": "Feature", "properties": {"fid": 248, "osm_id": "4014574261", "code": 5602, "fclass": "railway_halt", "name": "Ciechanowice"}, "geometry": {"type": "Point", "coordinates": [15.9798559, 50.865419]}}, {"id": "223", "type": "Feature", "properties": {"fid": 249, "osm_id": "4014639129", "code": 5602, "fclass": "railway_halt", "name": "Trzci\u0144sko"}, "geometry": {"type": "Point", "coordinates": [15.872031, 50.8832177]}}, {"id": "224", "type": "Feature", "properties": {"fid": 250, "osm_id": "4014663812", "code": 5601, "fclass": "railway_station", "name": "Wojan\u00f3w"}, "geometry": {"type": "Point", "coordinates": [15.8212863, 50.8847457]}}, {"id": "225", "type": "Feature", "properties": {"fid": 251, "osm_id": "4019276630", "code": 5602, "fclass": "railway_halt", "name": "Jelenia G\u00f3ra Zabobrze"}, "geometry": {"type": "Point", "coordinates": [15.7431012, 50.9098997]}}, {"id": "226", "type": "Feature", "properties": {"fid": 252, "osm_id": "4032506260", "code": 5602, "fclass": "railway_halt", "name": "Mod\u0142a"}, "geometry": {"type": "Point", "coordinates": [15.8134185, 51.3756784]}}, {"id": "227", "type": "Feature", "properties": {"fid": 253, "osm_id": "4032562218", "code": 5602, "fclass": "railway_halt", "name": "Studzianka"}, "geometry": {"type": "Point", "coordinates": [15.6950935, 51.4270844]}}, {"id": "228", "type": "Feature", "properties": {"fid": 254, "osm_id": "4053103453", "code": 5602, "fclass": "railway_halt", "name": "J\u0119drzychowice"}, "geometry": {"type": "Point", "coordinates": [15.0177339, 51.1740916]}}, {"id": "229", "type": "Feature", "properties": {"fid": 255, "osm_id": "4054764600", "code": 5601, "fclass": "railway_station", "name": "Kro\u015bnice"}, "geometry": {"type": "Point", "coordinates": [17.3738925, 51.4712011]}}, {"id": "230", "type": "Feature", "properties": {"fid": 261, "osm_id": "4054788624", "code": 5602, "fclass": "railway_halt", "name": "Wierzchowice"}, "geometry": {"type": "Point", "coordinates": [17.3516627, 51.5028344]}}, {"id": "231", "type": "Feature", "properties": {"fid": 262, "osm_id": "4073562294", "code": 5601, "fclass": "railway_station", "name": "Boles\u0142awiec"}, "geometry": {"type": "Point", "coordinates": [15.5695267, 51.2660812]}}, {"id": "232", "type": "Feature", "properties": {"fid": 263, "osm_id": "4235273669", "code": 5601, "fclass": "railway_station", "name": "Mierosz\u00f3w"}, "geometry": {"type": "Point", "coordinates": [16.1933497, 50.6693093]}}, {"id": "233", "type": "Feature", "properties": {"fid": 264, "osm_id": "4242705989", "code": 5602, "fclass": "railway_halt", "name": "Marcinowice \u015awidnickie"}, "geometry": {"type": "Point", "coordinates": [16.586813, 50.8768688]}}, {"id": "234", "type": "Feature", "properties": {"fid": 265, "osm_id": "4244061890", "code": 5602, "fclass": "railway_halt", "name": "Szczepan\u00f3w"}, "geometry": {"type": "Point", "coordinates": [16.6251842, 50.8983293]}}, {"id": "235", "type": "Feature", "properties": {"fid": 266, "osm_id": "4246107479", "code": 5602, "fclass": "railway_halt", "name": "Rog\u00f3w Sob\u00f3cki"}, "geometry": {"type": "Point", "coordinates": [16.7591365, 50.9340992]}}, {"id": "236", "type": "Feature", "properties": {"fid": 267, "osm_id": "4736968858", "code": 5601, "fclass": "railway_station", "name": "Wroc\u0142aw Swojczyce"}, "geometry": {"type": "Point", "coordinates": [17.1213443, 51.1158639]}}, {"id": "237", "type": "Feature", "properties": {"fid": 268, "osm_id": "5356872372", "code": 5601, "fclass": "railway_station", "name": "Lubin"}, "geometry": {"type": "Point", "coordinates": [16.1934358, 51.3957796]}}, {"id": "238", "type": "Feature", "properties": {"fid": 269, "osm_id": "5600204728", "code": 5601, "fclass": "railway_station", "name": "Polanica-Zdr\u00f3j"}, "geometry": {"type": "Point", "coordinates": [16.5144061, 50.397589]}}, {"id": "239", "type": "Feature", "properties": {"fid": 270, "osm_id": "6218314792", "code": 5602, "fclass": "railway_halt", "name": "Wroc\u0142aw Kowale"}, "geometry": {"type": "Point", "coordinates": [17.1001696, 51.134977]}}, {"id": "240", "type": "Feature", "properties": {"fid": 271, "osm_id": "6534824787", "code": 5602, "fclass": "railway_halt", "name": "Rzeszotary"}, "geometry": {"type": "Point", "coordinates": [16.1658504, 51.2496181]}}, {"id": "241", "type": "Feature", "properties": {"fid": 272, "osm_id": "6534824813", "code": 5601, "fclass": "railway_station", "name": "Rasz\u00f3wka"}, "geometry": {"type": "Point", "coordinates": [16.1816401, 51.3015343]}}, {"id": "242", "type": "Feature", "properties": {"fid": 273, "osm_id": "6534824814", "code": 5602, "fclass": "railway_halt", "name": "Gorzelin"}, "geometry": {"type": "Point", "coordinates": [16.1810368, 51.3283215]}}, {"id": "243", "type": "Feature", "properties": {"fid": 274, "osm_id": "6534824815", "code": 5602, "fclass": "railway_halt", "name": "Chr\u00f3stnik"}, "geometry": {"type": "Point", "coordinates": [16.1809343, 51.3554019]}}, {"id": "244", "type": "Feature", "properties": {"fid": 275, "osm_id": "6534833802", "code": 5601, "fclass": "railway_station", "name": "Ko\u017alice"}, "geometry": {"type": "Point", "coordinates": [16.2330039, 51.451134]}}, {"id": "245", "type": "Feature", "properties": {"fid": 276, "osm_id": "6534833803", "code": 5602, "fclass": "railway_halt", "name": "Rynarcice"}, "geometry": {"type": "Point", "coordinates": [16.2273654, 51.4725511]}}, {"id": "246", "type": "Feature", "properties": {"fid": 278, "osm_id": "6990104435", "code": 5602, "fclass": "railway_halt", "name": "Bielawa Zachodnia"}, "geometry": {"type": "Point", "coordinates": [16.606717, 50.6858735]}}, {"id": "247", "type": "Feature", "properties": {"fid": 279, "osm_id": "7047566737", "code": 5602, "fclass": "railway_halt", "name": "Lubin Stadion"}, "geometry": {"type": "Point", "coordinates": [16.1992571, 51.4086345]}}, {"id": "248", "type": "Feature", "properties": {"fid": 280, "osm_id": "7047576585", "code": 5602, "fclass": "railway_halt", "name": "Mokronos G\u00f3rny"}, "geometry": {"type": "Point", "coordinates": [16.9087418, 51.0788759]}}, {"id": "249", "type": "Feature", "properties": {"fid": 281, "osm_id": "7110814864", "code": 5601, "fclass": "railway_station", "name": "\u015awidnica Przedmie\u015bcie"}, "geometry": {"type": "Point", "coordinates": [16.5039056, 50.8350396]}}, {"id": "250", "type": "Feature", "properties": {"fid": 282, "osm_id": "8227325732", "code": 5602, "fclass": "railway_halt", "name": "Wa\u0142brzych Centrum"}, "geometry": {"type": "Point", "coordinates": [16.2698578, 50.7733734]}}, {"id": "251", "type": "Feature", "properties": {"fid": 283, "osm_id": "8228580471", "code": 5602, "fclass": "railway_halt", "name": "Bia\u0142a G\u00f3rna"}, "geometry": {"type": "Point", "coordinates": [15.9284738, 51.297513]}}, {"id": "252", "type": "Feature", "properties": {"fid": 284, "osm_id": "8927458718", "code": 5602, "fclass": "railway_halt", "name": "Wroc\u0142aw Popiele"}, "geometry": {"type": "Point", "coordinates": [17.1142732, 51.1224546]}}, {"id": "253", "type": "Feature", "properties": {"fid": 285, "osm_id": "8927488123", "code": 5602, "fclass": "railway_halt", "name": "Wroc\u0142aw Wojn\u00f3w Wschodni"}, "geometry": {"type": "Point", "coordinates": [17.1682097, 51.0980421]}}, {"id": "254", "type": "Feature", "properties": {"fid": 286, "osm_id": "8927488125", "code": 5602, "fclass": "railway_halt", "name": "Nadolice Ma\u0142e"}, "geometry": {"type": "Point", "coordinates": [17.2194695, 51.081793]}}, {"id": "255", "type": "Feature", "properties": {"fid": 287, "osm_id": "8927488127", "code": 5602, "fclass": "railway_halt", "name": "Chrz\u0105stawa Ma\u0142a"}, "geometry": {"type": "Point", "coordinates": [17.2761383, 51.073494]}}, {"id": "256", "type": "Feature", "properties": {"fid": 288, "osm_id": "9067487855", "code": 5602, "fclass": "railway_halt", "name": "Wroc\u0142aw Szczepin"}, "geometry": {"type": "Point", "coordinates": [17.0142423, 51.1229484]}}, {"id": "257", "type": "Feature", "properties": {"fid": 289, "osm_id": "9177835387", "code": 5602, "fclass": "railway_halt", "name": "Chocian\u00f3w"}, "geometry": {"type": "Point", "coordinates": [15.9120693, 51.4164174]}}, {"id": "258", "type": "Feature", "properties": {"fid": 290, "osm_id": "9218764911", "code": 5602, "fclass": "railway_halt", "name": "Legnica Piekary"}, "geometry": {"type": "Point", "coordinates": [16.1979745, 51.2016802]}}, {"id": "259", "type": "Feature", "properties": {"fid": 291, "osm_id": "9221292010", "code": 5602, "fclass": "railway_halt", "name": "Iwiny"}, "geometry": {"type": "Point", "coordinates": [17.068808, 51.0546671]}}, {"id": "260", "type": "Feature", "properties": {"fid": 292, "osm_id": "9253142720", "code": 5602, "fclass": "railway_halt", "name": "Wroc\u0142aw Wojszyce"}, "geometry": {"type": "Point", "coordinates": [17.0321678, 51.069076]}}, {"id": "261", "type": "Feature", "properties": {"fid": 293, "osm_id": "9253142730", "code": 5602, "fclass": "railway_halt", "name": "Wroc\u0142aw Partynice"}, "geometry": {"type": "Point", "coordinates": [16.9976665, 51.0611197]}}, {"id": "262", "type": "Feature", "properties": {"fid": 294, "osm_id": "9311389281", "code": 5602, "fclass": "railway_halt", "name": "Wroc\u0142aw Strachocin"}, "geometry": {"type": "Point", "coordinates": [17.1456731, 51.1098099]}}, {"id": "263", "type": "Feature", "properties": {"fid": 295, "osm_id": "9437421509", "code": 5602, "fclass": "railway_halt", "name": "Domas\u0142aw"}, "geometry": {"type": "Point", "coordinates": [16.9529393, 51.0100526]}}, {"id": "264", "type": "Feature", "properties": {"fid": 296, "osm_id": "9437426217", "code": 5602, "fclass": "railway_halt", "name": "Pszenno"}, "geometry": {"type": "Point", "coordinates": [16.530161, 50.8560357]}}, {"id": "265", "type": "Feature", "properties": {"fid": 297, "osm_id": "9562419262", "code": 5602, "fclass": "railway_halt", "name": "Jedlina-Zdr\u00f3j Centrum"}, "geometry": {"type": "Point", "coordinates": [16.3446376, 50.7211486]}}, {"id": "266", "type": "Feature", "properties": {"fid": 298, "osm_id": "10258115266", "code": 5602, "fclass": "railway_halt", "name": "Polana Jakuszycka"}, "geometry": {"type": "Point", "coordinates": [15.4295162, 50.8146295]}}, {"id": "267", "type": "Feature", "properties": {"fid": 299, "osm_id": "10308843617", "code": 5601, "fclass": "railway_station", "name": "Trzebnica"}, "geometry": {"type": "Point", "coordinates": [17.0632874, 51.3040435]}}, {"id": "268", "type": "Feature", "properties": {"fid": 300, "osm_id": "10308843703", "code": 5602, "fclass": "railway_halt", "name": "Pasikurowice"}, "geometry": {"type": "Point", "coordinates": [17.1096071, 51.2088929]}}, {"id": "269", "type": "Feature", "properties": {"fid": 301, "osm_id": "10572480527", "code": 5602, "fclass": "railway_halt", "name": "Wierzbice"}, "geometry": {"type": "Point", "coordinates": [16.8992341, 50.9650919]}}, {"id": "270", "type": "Feature", "properties": {"fid": 302, "osm_id": "10572480528", "code": 5602, "fclass": "railway_halt", "name": "Pustk\u00f3w \u017burawski"}, "geometry": {"type": "Point", "coordinates": [16.8573067, 50.9541305]}}, {"id": "271", "type": "Feature", "properties": {"fid": 303, "osm_id": "10572804710", "code": 5602, "fclass": "railway_halt", "name": "Burkat\u00f3w"}, "geometry": {"type": "Point", "coordinates": [16.4733834, 50.7934885]}}, {"id": "272", "type": "Feature", "properties": {"fid": 304, "osm_id": "10572804752", "code": 5602, "fclass": "railway_halt", "name": "Bystrzyca G\u00f3rna"}, "geometry": {"type": "Point", "coordinates": [16.4561321, 50.7812879]}}, {"id": "273", "type": "Feature", "properties": {"fid": 305, "osm_id": "10572804799", "code": 5602, "fclass": "railway_halt", "name": "Lubach\u00f3w"}, "geometry": {"type": "Point", "coordinates": [16.4345415, 50.7743072]}}, {"id": "274", "type": "Feature", "properties": {"fid": 306, "osm_id": "10572804866", "code": 5602, "fclass": "railway_halt", "name": "Zag\u00f3rze \u015al\u0105skie"}, "geometry": {"type": "Point", "coordinates": [16.4036, 50.7537361]}}, {"id": "275", "type": "Feature", "properties": {"fid": 307, "osm_id": "10572804904", "code": 5602, "fclass": "railway_halt", "name": "Jugowice"}, "geometry": {"type": "Point", "coordinates": [16.405311, 50.732126]}}, {"id": "276", "type": "Feature", "properties": {"fid": 308, "osm_id": "10574304735", "code": 5602, "fclass": "railway_halt", "name": "\u015awidnica Zawisz\u00f3w"}, "geometry": {"type": "Point", "coordinates": [16.47937, 50.8600642]}}, {"id": "277", "type": "Feature", "properties": {"fid": 309, "osm_id": "10776551295", "code": 5602, "fclass": "railway_halt", "name": "Bogusz\u00f3w-Gorce Dzikowiec"}, "geometry": {"type": "Point", "coordinates": [16.2176489, 50.7276066]}}, {"id": "278", "type": "Feature", "properties": {"fid": 310, "osm_id": "10864133221", "code": 5602, "fclass": "railway_halt", "name": "Legnica Strefa"}, "geometry": {"type": "Point", "coordinates": [16.1853138, 51.1652386]}}, {"id": "279", "type": "Feature", "properties": {"fid": 311, "osm_id": "10977746452", "code": 5601, "fclass": "railway_station", "name": "Kamieniec Z\u0105bkowicki"}, "geometry": {"type": "Point", "coordinates": [16.8989781, 50.536143]}}, {"id": "280", "type": "Feature", "properties": {"fid": 312, "osm_id": "11015973335", "code": 5602, "fclass": "railway_halt", "name": "Unis\u0142aw \u015al\u0105ski"}, "geometry": {"type": "Point", "coordinates": [16.224295, 50.711112]}}, {"id": "281", "type": "Feature", "properties": {"fid": 313, "osm_id": "11015973336", "code": 5602, "fclass": "railway_halt", "name": "G\u0142uszyca"}, "geometry": {"type": "Point", "coordinates": [16.3539942, 50.6878683]}}, {"id": "282", "type": "Feature", "properties": {"fid": 314, "osm_id": "11015973337", "code": 5602, "fclass": "railway_halt", "name": "G\u0142uszyca G\u00f3rna"}, "geometry": {"type": "Point", "coordinates": [16.3713884, 50.6728472]}}, {"id": "283", "type": "Feature", "properties": {"fid": 315, "osm_id": "11252036715", "code": 5601, "fclass": "railway_station", "name": "\u015awierad\u00f3w-Zdr\u00f3j"}, "geometry": {"type": "Point", "coordinates": [15.3435063, 50.911427]}}, {"id": "284", "type": "Feature", "properties": {"fid": 316, "osm_id": "11359355533", "code": 5602, "fclass": "railway_halt", "name": "\u0141omnica Dolna"}, "geometry": {"type": "Point", "coordinates": [15.801268, 50.8781563]}}, {"id": "285", "type": "Feature", "properties": {"fid": 317, "osm_id": "11374585673", "code": 5602, "fclass": "railway_halt", "name": "Or\u0142owice"}, "geometry": {"type": "Point", "coordinates": [15.3521135, 50.9318348]}}, {"id": "286", "type": "Feature", "properties": {"fid": 318, "osm_id": "11374585699", "code": 5602, "fclass": "railway_halt", "name": "Mroczkowice"}, "geometry": {"type": "Point", "coordinates": [15.3616628, 50.9475224]}}, {"id": "287", "type": "Feature", "properties": {"fid": 319, "osm_id": "11374585708", "code": 5602, "fclass": "railway_halt", "name": "Mirsk"}, "geometry": {"type": "Point", "coordinates": [15.3803284, 50.9731622]}}, {"id": "288", "type": "Feature", "properties": {"fid": 320, "osm_id": "11374585713", "code": 5602, "fclass": "railway_halt", "name": "Prosz\u00f3wka"}, "geometry": {"type": "Point", "coordinates": [15.4245432, 51.0100176]}}, {"id": "289", "type": "Feature", "properties": {"fid": 321, "osm_id": "11380011571", "code": 5601, "fclass": "railway_station", "name": "Mys\u0142akowice"}, "geometry": {"type": "Point", "coordinates": [15.7880189, 50.8353309]}}, {"id": "290", "type": "Feature", "properties": {"fid": 322, "osm_id": "11407068398", "code": 5602, "fclass": "railway_halt", "name": "Mirk\u00f3w"}, "geometry": {"type": "Point", "coordinates": [17.1654675, 51.1654921]}}, {"id": "291", "type": "Feature", "properties": {"fid": 323, "osm_id": "11831904332", "code": 5602, "fclass": "railway_halt", "name": "Mi\u0142k\u00f3w"}, "geometry": {"type": "Point", "coordinates": [15.763888, 50.8098459]}}, {"id": "292", "type": "Feature", "properties": {"fid": 324, "osm_id": "12082777801", "code": 5602, "fclass": "railway_halt", "name": "Nowa Ruda Przedmie\u015bcie"}, "geometry": {"type": "Point", "coordinates": [16.5160392, 50.588421]}}, {"id": "293", "type": "Feature", "properties": {"fid": 325, "osm_id": "12082778097", "code": 5601, "fclass": "railway_station", "name": "Nowa Ruda"}, "geometry": {"type": "Point", "coordinates": [16.4968105, 50.5772987]}}, {"id": "294", "type": "Feature", "properties": {"fid": 326, "osm_id": "12381011597", "code": 5602, "fclass": "railway_halt", "name": "O\u0142awa Zachodnia"}, "geometry": {"type": "Point", "coordinates": [17.2687145, 50.9450241]}}, {"id": "295", "type": "Feature", "properties": {"fid": 327, "osm_id": "12520400866", "code": 5602, "fclass": "railway_halt", "name": "\u0141agiewniki"}, "geometry": {"type": "Point", "coordinates": [16.8498623, 50.7900344]}}, {"id": "296", "type": "Feature", "properties": {"fid": 328, "osm_id": "12520400894", "code": 5602, "fclass": "railway_halt", "name": "Wilk\u00f3w Wielki"}, "geometry": {"type": "Point", "coordinates": [16.844227, 50.7497501]}}, {"id": "297", "type": "Feature", "properties": {"fid": 329, "osm_id": "12520409304", "code": 5602, "fclass": "railway_halt", "name": "Niemcza"}, "geometry": {"type": "Point", "coordinates": [16.8372104, 50.7149755]}}, {"id": "298", "type": "Feature", "properties": {"fid": 330, "osm_id": "12520409318", "code": 5602, "fclass": "railway_halt", "name": "Przerzeczyn Zdr\u00f3j"}, "geometry": {"type": "Point", "coordinates": [16.8196526, 50.689176]}}, {"id": "299", "type": "Feature", "properties": {"fid": 331, "osm_id": "12810654076", "code": 5602, "fclass": "railway_halt", "name": "Ludwikowice K\u0142odzkie"}, "geometry": {"type": "Point", "coordinates": [16.4812966, 50.6194709]}}, {"id": "300", "type": "Feature", "properties": {"fid": 332, "osm_id": "12871928025", "code": 5602, "fclass": "railway_halt", "name": "Mys\u0142akowice Orze\u0142"}, "geometry": {"type": "Point", "coordinates": [15.7864094, 50.8250794]}}, {"id": "301", "type": "Feature", "properties": {"fid": 333, "osm_id": "12871928034", "code": 5602, "fclass": "railway_halt", "name": "\u0141omnica"}, "geometry": {"type": "Point", "coordinates": [15.7977812, 50.8623742]}}, {"id": "302", "type": "Feature", "properties": {"fid": 334, "osm_id": "12871928054", "code": 5602, "fclass": "railway_halt", "name": "\u0141omnica \u015arednia"}, "geometry": {"type": "Point", "coordinates": [15.7944056, 50.8868226]}}, {"id": "303", "type": "Feature", "properties": {"fid": 335, "osm_id": "12918903149", "code": 5602, "fclass": "railway_halt", "name": "Kunice"}, "geometry": {"type": "Point", "coordinates": [16.2546327, 51.2150066]}}, {"id": "304", "type": "Feature", "properties": {"fid": 336, "osm_id": "13046830236", "code": 5602, "fclass": "railway_halt", "name": "Nowa Ruda Zdrojowisko"}, "geometry": {"type": "Point", "coordinates": [16.5095759, 50.6120549]}}, {"id": "305", "type": "Feature", "properties": {"fid": 338, "osm_id": "13261841200", "code": 5602, "fclass": "railway_halt", "name": "Bielawa Centralna"}, "geometry": {"type": "Point", "coordinates": [16.6207799, 50.6927768]}}]}